City_ID,City,Lat,Lng,Max Temp,Humidity,Cloudiness,Wind Speed,Country,Date
0,kharkhorin,47.1975,102.8238,14.58,75,80,4.39,MN,1721593471
1,west island,-12.1568,96.8225,26.99,89,75,5.66,CC,1721593473
2,blackmans bay,-43.0167,147.3167,10.29,87,100,1.38,AU,1721593475
3,adamstown,-25.066,-130.1015,18.83,66,95,8.71,PN,1721593478
4,waitangi,-43.9535,-176.5597,9.9,99,100,4.02,NZ,1721593480
5,bredasdorp,-34.5322,20.0403,6.94,86,0,1.06,ZA,1721593482
6,rio grande,-32.035,-52.0986,17.75,80,100,1.82,BR,1721593484
7,samalut,28.3121,30.7101,35.01,18,0,3.19,EG,1721593485
8,punta arenas,-53.15,-70.9167,7.06,87,100,13.38,CL,1721593330
9,freetown,8.484,-13.2299,24.05,94,100,3.15,SL,1721593489
10,tolanaro,-25.0319,46.9987,19.04,94,20,0.0,MG,1721593491
11,port-aux-francais,-49.35,70.2167,3.99,97,100,10.47,TF,1721593494
12,praia da vitoria,38.7333,-27.0667,25.42,78,75,1.77,PT,1721593495
13,calvi,42.5,8.8333,24.35,54,75,4.63,FR,1721593497
14,cozumel,20.5083,-86.9458,32.04,70,75,4.12,MX,1721593501
15,albany,42.6001,-73.9662,29.36,55,94,0.45,US,1721593503
16,edinburgh of the seven seas,-37.0676,-12.3116,10.24,61,97,13.54,SH,1721593505
17,ilulissat,69.2167,-51.1,10.01,71,20,1.54,GL,1721593508
18,bethel,41.3712,-73.414,30.36,50,0,2.06,US,1721593509
19,constitucion,-35.3333,-72.4167,13.48,67,0,1.77,CL,1721593513
20,castillos,-34.1667,-53.8333,15.97,86,93,3.45,UY,1721593515
21,atafu village,-8.5421,-172.5159,28.47,75,44,9.09,TK,1721593517
22,port moresby,-9.4431,147.1797,23.15,86,100,5.25,PG,1721593519
23,conduaga,8.862,117.4893,26.4,87,100,2.22,PH,1721593521
24,saint-philippe,-21.3585,55.7679,20.77,82,35,3.06,RE,1721593522
25,huilong,31.8111,121.655,26.5,88,73,6.16,CN,1721593524
26,invercargill,-46.4,168.35,7.79,83,100,2.24,NZ,1721593526
27,chiang kham,19.5233,100.3,19.98,79,100,0.86,TH,1721593528
28,okhotsk,59.3833,143.3,11.85,95,100,3.0,RU,1721593530
29,bilibino,68.0546,166.4372,10.94,87,100,2.03,RU,1721593533
30,port lincoln,-34.7333,135.8667,12.69,90,91,6.48,AU,1721593535
31,olonkinbyen,70.9221,-8.7187,5.86,93,100,8.15,SJ,1721593537
32,kencong,-8.2833,113.3667,23.31,85,100,0.94,ID,1721593541
33,makarov,48.6333,142.8,14.46,100,100,1.68,RU,1721593543
34,cumana,10.4635,-64.1775,30.31,63,9,5.74,VE,1721593545
35,berezovyy,51.6667,135.7,15.57,97,100,1.89,RU,1721593547
36,trujillo,-8.116,-79.03,18.98,72,5,5.14,PE,1721593549
37,malakal,9.5334,31.6605,22.07,94,86,1.51,SS,1721593551
38,tiksi,71.6872,128.8694,4.41,88,100,1.97,RU,1721593553
39,wailua homesteads,22.0669,-159.378,26.74,74,40,5.14,US,1721593555
40,puerto natales,-51.7236,-72.4875,8.25,93,100,10.29,CL,1721593557
41,ponta delgada,37.7333,-25.6667,24.4,83,20,4.63,PT,1721593559
42,grytviken,-54.2811,-36.5092,0.79,89,47,4.37,GS,1721593561
43,hermanus,-34.4187,19.2345,9.99,77,0,1.47,ZA,1721593563
44,tanjung selor,2.8372,117.3642,23.77,97,100,1.47,ID,1721593564
45,krasnyy yar,46.5331,48.3456,22.96,31,5,2.65,RU,1721593567
46,nadym,65.5333,72.5167,9.08,59,0,3.32,RU,1721593569
47,kodiak,57.79,-152.4072,15.73,77,75,2.06,US,1721593571
48,qamdo,31.1667,97.2333,10.81,88,100,3.4,CN,1721593573
49,port isabel,26.0734,-97.2086,34.05,79,2,3.13,US,1721593574
50,itaituba,-4.2761,-55.9836,35.09,41,40,1.03,BR,1721593576
51,lerwick,60.1545,-1.1494,12.0,88,100,4.8,GB,1721593578
52,maragogi,-9.0122,-35.2225,23.9,74,40,5.23,BR,1721593580
53,jamestown,42.097,-79.2353,26.77,46,0,0.0,US,1721593582
54,afaahiti,-17.75,-149.2833,24.93,70,99,10.59,PF,1721593584
55,karagandy,49.8019,73.1021,14.97,78,12,2.22,KZ,1721593586
56,amble,55.3333,-1.5833,15.42,72,100,1.54,GB,1721593590
57,kinmparana,12.8402,-4.9199,26.87,74,98,5.3,ML,1721593594
58,papatowai,-46.5619,169.4708,7.43,82,97,5.93,NZ,1721593596
59,enewetak,11.3474,162.3373,28.28,80,98,7.37,MH,1721593598
60,tanque verde,32.2517,-110.7373,38.09,30,0,3.13,US,1721593600
61,mandalgovi,45.7625,106.2708,15.49,75,6,6.28,MN,1721593602
62,khuzdar,27.7384,66.6434,28.62,58,96,0.96,PK,1721593604
63,ushuaia,-54.8,-68.3,8.81,57,0,2.57,AR,1721593605
64,whitehorse,60.7161,-135.0538,24.43,41,40,2.57,CA,1721593523
65,rongelap,11.1635,166.8941,28.25,81,22,7.22,MH,1721593609
66,la foa,-21.7108,165.8276,18.28,72,58,0.92,NC,1721593611
67,salaga,8.5508,-0.5188,24.04,91,86,2.31,GH,1721593612
68,lobujya,27.95,86.8167,4.39,99,100,1.61,NP,1721593614
69,namtsy,62.7161,129.6658,15.97,85,57,1.35,RU,1721593616
70,ryotsu-minato,38.0833,138.4333,24.83,87,1,4.4,JP,1721593618
71,berezovo,63.9381,65.0419,9.63,71,100,2.18,RU,1721593621
72,carolina beach,34.0352,-77.8936,31.73,81,61,5.72,US,1721593623
73,kyzylorda,44.8528,65.5092,22.01,49,0,2.0,KZ,1721593625
74,georgetown,5.4112,100.3354,29.96,87,20,2.06,MY,1721593626
75,weno,7.4515,151.8468,27.97,89,100,1.54,FM,1721593630
76,puerto armuelles,8.2833,-82.8667,29.99,87,78,0.45,PA,1721593632
77,haiku-pauwela,20.9219,-156.3051,28.36,72,40,7.2,US,1721593633
78,sofifi,0.7349,127.576,25.57,83,100,1.9,ID,1721593635
79,tutoia,-2.7619,-42.2744,27.32,70,66,5.47,BR,1721593639
80,hailakandi,24.6833,92.5667,25.27,98,100,1.43,IN,1721593640
81,tingo maria,-9.2895,-76.0088,31.17,51,20,1.54,PE,1721593642
82,margaret river,-33.95,115.0667,15.83,76,49,9.88,AU,1721593644
83,uturoa,-16.7333,-151.4333,24.63,59,99,9.75,PF,1721593646
84,hawaiian paradise park,19.5933,-154.9731,26.73,76,100,3.6,US,1721593649
85,iskateley,67.6803,53.1512,10.67,63,96,2.03,RU,1721593651
86,iqaluit,63.7506,-68.5145,15.85,59,20,2.06,CA,1721593653
87,maryborough,-25.5333,152.7,6.14,65,0,2.2,AU,1721593655
88,dakoro,14.5106,6.765,30.44,53,35,5.04,NE,1721593656
89,talnakh,69.4865,88.3972,5.62,78,0,5.22,RU,1721593658
90,klyuchi,52.2667,79.1667,19.04,81,84,3.81,RU,1721593660
91,port saint john's,-31.6229,29.5448,15.2,68,100,1.67,ZA,1721593662
92,fale old settlement,-9.3852,-171.2468,28.16,68,36,8.25,TK,1721593664
93,lompoc,34.6391,-120.4579,25.32,77,75,5.66,US,1721593388
94,kozhevnikovo,56.2589,83.9714,16.25,96,86,2.08,RU,1721593667
95,korla,41.7597,86.1469,30.58,22,100,6.32,CN,1721593669
96,lac-brome,45.2168,-72.5158,23.54,51,0,2.92,CA,1721593670
97,mao,39.8885,4.2658,24.31,57,20,8.23,ES,1721593672
98,nagqu,31.5,92.0,7.37,92,100,0.93,CN,1721593674
99,longyearbyen,78.2186,15.6401,8.91,81,75,1.03,SJ,1721593676
100,hithadhoo,-0.6,73.0833,29.27,73,5,5.88,MV,1721593678
101,udachny,66.4167,112.4,14.12,91,100,8.99,RU,1721593679
102,lihue,21.9789,-159.3672,27.08,75,40,5.14,US,1721593681
103,masterton,-40.9597,175.6575,9.38,96,100,1.89,NZ,1721593683
104,ust-tsilma,65.441,52.1498,10.56,65,33,1.49,RU,1721593685
105,santyoku,37.4406,129.1708,26.4,72,17,2.69,KR,1721593686
106,wenchang,30.904,118.4887,28.48,72,100,1.96,CN,1721593688
107,yarmouth,41.7057,-70.2286,28.14,71,0,5.14,US,1721593690
108,kill devil hills,36.0307,-75.676,27.21,72,0,3.09,US,1721593692
109,alofi,-19.0595,-169.9187,24.94,73,75,3.6,NU,1721593695
110,aswan,24.0934,32.907,38.61,12,0,3.09,EG,1721593697
111,okha,53.5739,142.9478,13.68,98,100,1.88,RU,1721593699
112,san blas,21.5167,-105.2667,33.94,74,99,1.61,MX,1721593701
113,kingston,17.997,-76.7936,33.53,62,20,9.77,JM,1721593634
114,majene,-3.5403,118.9707,24.67,90,99,5.35,ID,1721593704
115,bopolu,7.0667,-10.4875,22.44,99,100,1.21,LR,1721593706
116,grants,35.1473,-107.8514,26.41,37,58,4.21,US,1721593708
117,borovskoy,53.8,64.15,17.96,87,98,2.3,KZ,1721593709
118,port elizabeth,-33.918,25.5701,9.06,88,0,2.57,ZA,1721593711
119,probolinggo,-7.7543,113.2159,23.12,84,10,2.55,ID,1721593713
120,kalmunai,7.4167,81.8167,27.34,78,18,2.81,LK,1721593715
121,hamilton,39.1834,-84.5333,28.35,60,75,3.6,US,1721593716
122,kununurra,-15.7667,128.7333,11.99,58,71,3.09,AU,1721593718
123,badger,64.8,-147.5333,23.88,52,0,0.0,US,1721593720
124,selfoss,63.9331,-20.9971,9.47,70,38,5.44,IS,1721593722
125,cabo san lucas,22.8909,-109.9124,34.61,45,0,1.54,MX,1721593506
126,shetpe,44.1667,52.1167,23.82,61,67,0.87,KZ,1721593725
127,champerico,14.3,-91.9167,34.3,72,65,2.97,GT,1721593727
128,ribeira grande,38.5167,-28.7,25.22,73,20,3.6,PT,1721593729
129,anadyr,64.75,177.4833,13.28,87,100,2.68,RU,1721593730
130,saldanha,-33.0117,17.9442,8.03,72,22,5.51,ZA,1721593732
131,puerto ayora,-0.7393,-90.3518,25.98,89,54,3.58,EC,1721593734
132,marsabit,2.3284,37.9899,20.93,60,99,9.49,KE,1721593736
133,east london,-33.0153,27.9116,14.21,58,65,1.59,ZA,1721593737
134,egilsstadir,65.2653,-14.3948,9.95,81,75,3.09,IS,1721593739
135,axim,4.8699,-2.2405,24.05,87,30,3.91,GH,1721593741
136,stanley,54.868,-1.6985,14.29,76,20,1.54,GB,1721593743
137,pergamino,-33.89,-60.5736,15.55,69,88,3.09,AR,1721593744
138,aykhal,66.0,111.5,13.32,93,100,7.11,RU,1721593746
139,chonchi,-42.6128,-73.8092,10.56,76,5,0.36,CL,1721593748
140,pionerskiy,54.9508,20.2275,17.91,78,0,5.21,RU,1721593750
141,genhe,50.7833,121.5167,12.67,93,3,1.42,CN,1721593751
142,sorong,-0.8833,131.25,24.43,92,100,3.89,ID,1721593753
143,perugorria,-29.3413,-58.6106,25.21,56,97,1.23,AR,1721593755
144,nouadhibou,20.931,-17.0347,22.99,73,16,6.17,MR,1721593757
145,paracuru,-3.41,-39.0306,27.28,76,16,7.38,BR,1721593759
146,massawa,15.6097,39.45,38.1,39,68,2.71,ER,1721593760
147,khark,29.2614,50.3306,35.45,63,11,7.49,IR,1721593762
148,gadzhiyevo,69.2551,33.3362,18.25,68,87,1.97,RU,1721593764
149,petropavlovsk-kamchatsky,53.0452,158.6483,9.33,100,100,0.0,RU,1721593766
150,caleta de carquin,-11.0925,-77.6267,18.6,73,17,5.62,PE,1721593767
151,tromso,69.6496,18.957,20.01,64,0,3.09,NO,1721593769
152,zeya,53.75,127.2667,16.63,95,44,1.83,RU,1721593771
153,arraial do cabo,-22.9661,-42.0278,22.92,60,20,4.12,BR,1721593773
154,sulphur springs,33.1385,-95.6011,31.08,58,0,1.54,US,1721593775
155,daru,-9.0763,143.2092,24.56,83,100,7.02,PG,1721593777
156,sitka,57.0531,-135.33,15.94,77,100,3.6,US,1721593778
157,elesbao veloso,-6.2019,-42.1403,33.93,20,34,2.65,BR,1721593780
158,yanggu,36.1106,115.7753,27.52,94,26,4.94,CN,1721593782
159,angaur state,6.906,134.13,27.28,82,100,6.13,PW,1721593784
160,jayapura,-2.5333,140.7,23.66,90,32,1.42,ID,1721593786
161,shingu,33.7333,135.9833,25.51,93,22,2.66,JP,1721593787
162,amursk,50.2261,136.8994,15.88,99,100,4.24,RU,1721593789
163,tazovsky,67.4667,78.7,5.57,73,11,3.39,RU,1721593791
164,mount isa,-20.7333,139.5,3.87,65,0,2.57,AU,1721593793
165,acarau,-2.8856,-40.12,26.59,74,14,8.5,BR,1721593795
166,yeppoon,-23.1333,150.7333,6.81,56,0,2.28,AU,1721593797
167,dudinka,69.4058,86.1778,4.14,81,4,4.91,RU,1721593799
168,columbia,34.0007,-81.0348,33.61,56,75,1.54,US,1721593801
169,port-saint-louis-du-rhone,43.3833,4.8,22.13,73,0,4.12,FR,1721593802
170,colonia,50.9333,6.95,21.92,78,0,3.09,DE,1721593804
171,hailar,49.2,119.7,17.06,84,63,3.57,CN,1721593806
172,nizhneangarsk,55.7833,109.55,18.19,61,100,2.53,RU,1721593808
173,ciudad del maiz,22.4,-99.6,25.38,63,60,4.81,MX,1721593810
174,polyarnyy,69.1989,33.4478,18.08,65,89,3.77,RU,1721593812
175,willard,41.0531,-82.7263,28.73,44,100,0.92,US,1721593814
176,antsiranana,-12.2787,49.2917,22.31,84,33,5.99,MG,1721593815
177,ancud,-41.8697,-73.8203,9.02,86,18,0.99,CL,1721593817
178,koya,34.2129,135.6224,23.61,86,8,1.59,JP,1721593821
179,gnesta,59.0475,17.3119,17.23,99,49,1.82,SE,1721593823
180,utrik,11.2278,169.8474,27.77,81,81,7.44,MH,1721593825
181,isafjordur,66.0755,-23.124,4.39,94,99,3.91,IS,1721593827
182,port alfred,-33.5906,26.891,12.33,72,3,2.91,ZA,1721593828
183,tres arroyos,-38.3739,-60.2798,9.39,54,1,2.34,AR,1721593831
184,port mathurin,-19.6833,63.4167,22.61,70,7,5.84,MU,1721593832
185,noyemberyan,41.1724,44.9992,19.3,72,44,2.86,AM,1721593834
186,saipan,15.1355,145.701,28.39,89,20,2.57,MP,1721593836
187,salym,60.0625,71.4789,13.23,60,85,2.54,RU,1721593838
188,gazli,40.1333,63.45,32.45,22,0,6.41,UZ,1721593840
189,lata,40.1629,-8.3327,22.73,85,0,0.98,PT,1721593841
190,onega,63.9061,38.1404,12.68,67,11,3.01,RU,1721593843
191,jwaneng,-24.6004,24.7303,11.47,20,32,2.25,BW,1721593845
192,kuzhener,56.8111,48.9128,14.62,96,92,5.75,RU,1721593847
193,nar'yan-mar,67.6713,53.087,11.04,59,97,2.37,RU,1721593849
194,banda aceh,5.5577,95.3222,26.78,82,96,4.38,ID,1721593850
195,temiskaming shores,47.4938,-79.7153,21.89,37,20,2.58,CA,1721593852
196,touros,-5.1989,-35.4608,24.55,80,40,6.31,BR,1721593854
197,fort bragg,35.139,-79.006,32.04,68,20,2.57,US,1721593856
198,revda,56.801,59.9303,11.18,88,100,3.75,RU,1721593858
199,scottburgh,-30.2867,30.7532,15.99,84,96,1.75,ZA,1721593860
200,misratah,32.3754,15.0925,28.96,53,0,3.2,LY,1721593862
201,kitimat,54.0524,-128.6534,24.21,77,100,3.13,CA,1721593864
202,namibe,-15.1961,12.1522,18.01,82,97,1.26,AO,1721593866
203,iaciara,-14.0958,-46.6317,25.83,32,3,2.31,BR,1721593867
204,tsarychanka,48.937,34.4786,24.64,28,100,3.4,UA,1721593871
205,choix,26.7092,-108.3219,36.54,41,3,4.14,MX,1721593618
206,melfort,52.8667,-104.6177,26.07,65,0,1.54,CA,1721593875
207,hobyo,5.3505,48.5268,24.31,86,95,11.82,SO,1721593877
208,benjamin constant,-4.3831,-70.0311,33.07,55,40,2.57,BR,1721593879
209,cannonvale,-20.2833,148.7,17.66,60,0,7.03,AU,1721593880
210,susuman,62.7833,148.1667,12.25,92,100,0.43,RU,1721593882
211,vorgashor,67.5833,63.95,8.25,62,99,2.33,RU,1721593884
212,garoowe,8.4054,48.4845,25.52,63,72,13.23,SO,1721593886
213,alo,6.5486,4.2686,24.48,88,44,3.64,NG,1721593888
214,nemuro,43.3236,145.575,17.24,94,26,7.69,JP,1721593890
215,yuzhno-kurilsk,44.0306,145.8556,16.56,97,98,3.98,RU,1721593892
216,opuwo,-18.0607,13.84,15.63,33,59,1.76,,1721593894
217,golyshmanovo,56.3979,68.3728,14.76,94,74,2.19,RU,1721593896
218,college,64.8569,-147.8028,23.93,50,20,0.0,US,1721593898
219,mokhsogollokh,61.4681,128.9203,17.31,85,2,1.25,RU,1721593899
220,puerto aysen,-45.4,-72.7,6.69,100,100,2.94,CL,1721593901
221,vadso,70.0744,29.7487,23.49,68,0,2.06,NO,1721593903
222,ust-nera,64.5667,143.2,14.75,82,100,1.46,RU,1721593905
223,lebu,-37.6167,-73.65,9.81,66,4,2.13,CL,1721593907
224,hasaki,35.7333,140.8333,25.22,94,73,3.62,JP,1721593911
225,aden,12.7794,45.0367,29.57,76,100,2.35,YE,1721593913
226,thompson,55.7435,-97.8558,26.09,53,100,3.6,CA,1721593915
227,hudiksvall,61.729,17.1036,15.68,97,72,1.13,SE,1721593917
228,ambodifotatra,-16.9833,49.85,23.53,74,13,1.81,MG,1721593919
229,qaqortoq,60.7167,-46.0333,6.85,85,15,2.28,GL,1721593920
230,sao joao da barra,-21.6403,-41.0511,23.05,77,0,5.55,BR,1721593922
231,salekhard,66.53,66.6019,8.34,73,64,4.51,RU,1721593924
232,feijo,-8.1642,-70.3536,32.56,37,48,1.35,BR,1721593926
233,portland,45.5234,-122.6762,26.99,56,100,0.0,US,1721593537
234,taroa,8.7058,171.2275,27.9,80,65,5.49,MH,1721593929
235,uzgen,40.7699,73.3007,23.16,36,99,2.5,KG,1721593931
236,labrador city,52.9463,-66.9114,8.95,83,100,16.54,CA,1721593933
237,tabou,4.423,-7.3528,24.14,85,100,4.7,CI,1721593935
238,magadan,59.5667,150.8,13.45,92,100,1.71,RU,1721593937
239,wildberg,48.6234,8.7452,22.5,90,27,3.03,DE,1721593938
240,gilgit,35.9221,74.3087,26.83,42,76,0.43,PK,1721593940
241,point pedro,9.8167,80.2333,28.88,73,100,6.21,LK,1721593942
242,constantia,44.1833,28.65,27.38,77,99,0.8,RO,1721593944
243,madimba,-10.4,40.3333,20.76,71,32,3.17,TZ,1721593946
244,eirunepe,-6.6603,-69.8736,34.32,33,88,0.64,BR,1721593948
245,lander,42.833,-108.7307,26.76,30,0,5.12,US,1721593949
246,pielavesi,63.2333,26.75,15.32,69,0,2.35,FI,1721593951
247,nova sintra,14.8667,-24.7167,25.16,77,0,6.32,CV,1721593953
248,fortuna,40.5982,-124.1573,17.18,91,100,6.69,US,1721593955
249,young,-32.6833,-57.6333,17.95,88,99,1.78,UY,1721593956
250,port blair,11.6667,92.75,28.02,89,75,3.6,IN,1721593958
251,imphal,24.8167,93.95,22.16,100,100,0.58,IN,1721593960
252,yellowknife,62.456,-114.3525,26.34,38,75,2.24,CA,1721593962
253,avarua,-21.2078,-159.775,25.03,53,21,7.72,CK,1721593964
254,bulungu,-4.55,18.6,25.22,35,65,0.88,CD,1721593966
255,seka,17.9285,103.9552,24.73,97,100,2.08,TH,1721593970
256,pandan,14.0453,124.1694,26.77,88,100,5.43,PH,1721593972
257,rivera,-30.9053,-55.5508,19.61,96,100,0.6,UY,1721593974
258,gisborne,-38.6533,178.0042,11.39,87,74,1.91,NZ,1721593976
259,huarmey,-10.0681,-78.1522,19.08,72,3,5.61,PE,1721593977
260,vallenar,-28.5708,-70.7581,11.99,51,0,2.92,CL,1721593979
261,pimentel,-6.8367,-79.9342,21.16,60,0,9.26,PE,1721593981
262,sarria,42.7815,-7.4143,15.26,82,1,2.0,ES,1721593984
263,peniche,39.3558,-9.3811,18.93,86,0,9.24,PT,1721593986
264,vanimo,-2.6741,141.3028,24.28,87,98,1.4,PG,1721593988
265,fisterra,42.9049,-9.2629,18.9,80,0,9.01,ES,1721593990
266,aasiaat,68.7098,-52.8699,4.14,93,100,2.6,GL,1721593992
267,pangody,65.85,74.4859,7.96,66,0,3.36,RU,1721593993
268,da nang,16.0678,108.2208,26.99,100,0,0.51,VN,1721593995
269,bequimao,-2.4489,-44.7825,26.93,58,3,1.43,BR,1721593997
270,mbekenyera,-10.0,38.9833,16.99,84,7,1.86,TZ,1721593999
271,choibalsan,48.0667,114.5,19.1,80,86,3.21,MN,1721594001
272,coxim,-18.5067,-54.76,30.15,18,0,2.11,BR,1721594002
273,tateyama,34.9833,139.8667,27.28,94,10,6.25,JP,1721594006
274,nantucket,41.2835,-70.0995,27.3,83,20,7.72,US,1721594008
275,montepuez,-13.1256,38.9997,16.03,73,47,1.53,MZ,1721594010
276,ta`u,-14.2336,-169.5144,26.56,71,88,10.01,AS,1721594011
277,coquimbo,-29.9533,-71.3436,15.55,61,40,4.12,CL,1721594013
278,zaigrayevo,51.8336,108.2703,16.24,93,100,0.6,RU,1721594017
279,khandyga,62.6667,135.6,14.44,91,77,0.7,RU,1721594020
280,minas de marcona,-15.2119,-75.1103,13.47,65,2,6.86,PE,1721594022
281,duminichi,53.9345,35.1099,14.89,93,5,1.65,RU,1721594024
282,hirara,24.8,125.2833,28.15,89,40,3.6,JP,1721594026
283,frontera,26.9333,-101.45,33.83,40,11,1.34,MX,1721594028
284,yermentau,51.6214,73.1069,15.8,93,40,2.26,KZ,1721594029
285,port douglas,-16.4833,145.4667,18.24,73,30,3.12,AU,1721594031
286,oranjemund,-28.55,16.4333,12.34,87,100,4.51,,1721594033
287,chubbuck,42.9208,-112.4661,35.08,23,0,5.66,US,1721594035
288,coahuayana de hidalgo,18.7,-103.6583,30.9,66,77,2.69,MX,1721594037
289,kirensk,57.7853,108.1119,18.58,96,100,0.98,RU,1721594038
290,key west,24.5557,-81.7826,33.0,62,20,5.14,US,1721593821
291,prince rupert,54.3161,-130.3201,16.83,91,100,5.66,CA,1721594042
292,jiuquan,39.7432,98.5174,24.57,25,11,4.2,CN,1721594045
293,la passe,45.5549,-0.8967,17.77,73,85,5.43,FR,1721594047
294,semnan,35.5729,53.3971,29.72,37,59,4.54,IR,1721594049
295,sao jose da coroa grande,-8.8978,-35.1478,24.06,74,37,5.82,BR,1721594051
296,san antonio de pale,-1.4014,5.6325,23.45,74,1,2.14,GQ,1721594053
297,balykshi,47.0667,51.8667,26.0,69,0,3.0,KZ,1721594054
298,kourou,5.1552,-52.6478,28.03,89,33,2.88,GF,1721594056
299,sao gabriel da cachoeira,-0.1303,-67.0892,24.0,96,100,1.48,BR,1721594058
300,poronaysk,49.2167,143.1167,13.53,99,100,4.31,RU,1721594060
301,stepnoye,51.4,46.8667,20.11,54,0,2.44,RU,1721594062
302,bairnsdale,-37.8333,147.6167,9.47,83,97,0.45,AU,1721594019
303,capitan bado,-23.2667,-55.5333,23.41,34,0,2.53,PY,1721594065
304,hammerfest,70.6634,23.6821,19.25,72,0,4.12,NO,1721594067
305,soledade,-28.8183,-52.5103,14.9,92,100,1.08,BR,1721594069
306,chibougamau,49.9168,-74.3659,15.79,63,100,5.14,CA,1721594071
307,juan l. lacaze,-34.4333,-57.4167,12.88,91,99,2.12,UY,1721594073
308,tralee,52.2704,-9.7026,15.16,96,100,3.18,IE,1721594074
309,harper,4.375,-7.7169,24.32,84,100,4.64,LR,1721594076
310,oroqen zizhiqi,50.5667,123.7167,14.98,90,16,1.29,CN,1721594078
311,rio preto da eva,-2.6994,-59.6997,28.4,60,100,1.77,BR,1721594080
312,island harbour,50.724,-1.2758,18.29,73,4,1.34,GB,1721594082
313,nuuk,64.1835,-51.7216,6.34,87,20,4.63,GL,1721594084
314,carnarvon,-24.8667,113.6333,18.46,51,0,2.84,AU,1721594085
315,manakara,-22.1333,48.0167,18.04,93,3,1.94,MG,1721594087
316,gaspe,48.8334,-64.4819,19.12,52,75,3.09,CA,1721593906
317,upington,-28.4478,21.2561,11.21,22,100,3.3,ZA,1721594091
318,stephenville,32.2207,-98.2023,32.36,58,20,0.89,US,1721594092
319,tobruk,32.0836,23.9764,26.78,87,0,5.23,LY,1721594094
320,veraval,20.9,70.3667,27.22,91,100,8.69,IN,1721594096
321,raja,8.4596,25.678,21.94,91,100,1.42,SS,1721594098
322,al awjam,26.5632,49.9433,36.05,20,0,0.0,SA,1721594100
323,sampit,-2.5333,112.95,22.92,96,97,1.21,ID,1721594101
324,pachino,36.7186,15.0907,27.22,62,0,2.32,IT,1721594105
325,fada,7.25,4.0667,26.37,83,40,4.12,NG,1721594107
326,morehead city,34.7229,-76.726,30.01,78,0,4.63,US,1721594109
327,vila franca do campo,37.7167,-25.4333,24.23,81,24,2.35,PT,1721594111
328,pisco,-13.7,-76.2167,20.03,64,3,7.72,PE,1721594112
329,sungai penuh,-2.0833,101.3833,18.99,95,86,0.56,ID,1721594114
330,marsh harbour,26.5412,-77.0636,29.11,74,44,7.18,BS,1721594116
331,kikwit,-5.041,18.8162,25.82,29,67,0.43,CD,1721594118
332,walvis bay,-22.9575,14.5053,13.38,93,13,1.03,,1721594120
333,tayzhina,53.6679,87.4362,14.17,97,100,1.67,RU,1721594121
334,novyy urengoy,66.0833,76.6333,8.83,65,0,3.56,RU,1721594123
335,ejigbo,7.9,4.3167,21.75,97,73,2.82,NG,1721594125
336,atamyrat,37.8357,65.2106,29.33,20,0,4.42,TM,1721594127
337,brisas de zicatela,15.8369,-97.0419,30.29,74,75,1.03,MX,1721594129
338,mount pleasant,32.7941,-79.8626,32.88,71,0,5.14,US,1721594130
339,nieuw amsterdam,5.8833,-55.0833,30.09,83,40,6.17,SR,1721594132
340,sola,-13.8833,167.55,26.63,81,8,8.32,VU,1721594134
341,cananeia,-25.0147,-47.9267,17.52,83,0,1.4,BR,1721594136
342,brookings,44.3114,-96.7984,27.81,64,40,2.06,US,1721594137
343,trincomalee,8.5711,81.2335,27.39,79,87,9.08,LK,1721594139
344,maposeni,-10.5833,35.4,15.24,58,0,1.3,TZ,1721594141
345,uri,34.0833,74.0333,22.77,91,7,0.95,IN,1721594143
346,kyaka,-1.2522,31.4203,19.9,80,88,1.45,TZ,1721594145
347,darwin,-12.4611,130.8418,20.99,37,6,5.14,AU,1721593804
348,muncar,-8.4333,114.3333,23.06,91,47,0.87,ID,1721594148
349,cill airne,52.05,-9.5167,15.46,94,100,3.42,IE,1721594150
350,pangai,-19.8,-174.35,25.06,78,20,5.14,TO,1721594152
351,myrina,39.8797,25.0742,25.58,61,0,0.51,GR,1721594154
352,roma,43.2128,-75.4557,28.1,60,0,5.66,US,1721593898
353,petauke,-14.2426,31.3253,19.48,32,6,3.52,ZM,1721594157
354,mount pearl,47.5166,-52.7813,22.19,60,75,4.63,CA,1721594159
355,ayr,55.4627,-4.6339,14.99,77,75,1.54,GB,1721594161
356,valparaiso,-33.0393,-71.6273,19.13,55,20,3.6,CL,1721594162
357,petrovsk-zabaykal'skiy,51.273,108.843,18.75,75,100,1.44,RU,1721594164
358,basco,20.4487,121.9702,29.83,78,100,8.48,PH,1721594166
359,kavieng,-2.5744,150.7967,27.56,81,99,5.75,PG,1721594168
360,paso de los toros,-32.8167,-56.5167,18.53,86,70,1.24,UY,1721594169
361,ilha de mocambique,-15.0342,40.7358,23.62,63,52,1.86,MZ,1721594171
362,karmala,18.4167,75.2,23.13,91,100,4.49,IN,1721594173
363,kuqa,41.7278,82.9364,27.81,29,100,3.15,CN,1721594175
364,hailin,44.5833,129.4167,20.11,98,100,1.48,CN,1721594177
365,messaad,34.1543,3.5031,33.02,15,55,9.27,DZ,1721594178
366,tsiombe,-25.3,45.4833,18.13,94,13,2.42,MG,1721594180
367,mimizan,44.2006,-1.2289,20.14,65,100,2.72,FR,1721594182
368,barabinsk,55.3571,78.357,15.72,91,83,0.97,RU,1721594184
369,san salvo,42.0433,14.7272,27.28,65,34,2.28,IT,1721594186
370,makurazaki,31.2667,130.3167,24.12,95,2,1.48,JP,1721594187
371,idri,27.5,13.2667,33.27,18,0,2.05,LY,1721594189
372,alvinopolis,-20.1067,-43.0489,18.48,56,0,1.58,BR,1721594192
373,merei,45.1333,26.6833,19.64,84,15,2.12,RO,1721594193
374,umm kaddadah,13.6017,26.6876,30.61,49,98,5.45,SD,1721594195
375,anan,33.9167,134.65,26.88,100,100,1.03,JP,1721594197
376,notodden,59.5594,9.2585,18.75,81,84,1.36,NO,1721594199
377,hadibu,12.65,54.0333,26.24,82,100,11.23,YE,1721594200
378,sinabang,2.4803,96.3801,27.09,82,100,2.16,ID,1721594202
379,batticaloa,7.7102,81.6924,26.98,77,25,1.91,LK,1721594204
380,al kharijah,25.4514,30.5464,33.75,17,0,2.96,EG,1721594206
381,san borja,-14.8167,-66.85,32.23,33,7,1.97,BO,1721594208
382,naxos,37.1056,25.3764,26.77,62,0,2.23,GR,1721594210
383,mangrol,21.1167,70.1167,27.34,90,100,8.88,IN,1721594211
384,dalbandin,28.8947,64.4101,32.26,31,0,4.96,PK,1721594213
385,bamboo flat,11.7,92.7167,28.05,89,75,3.6,IN,1721594215
386,patos de minas,-18.5789,-46.5181,20.28,38,0,2.73,BR,1721594217
387,bhuj,23.2667,69.6667,28.95,87,100,6.97,IN,1721594219
388,contamana,-7.3333,-75.0167,33.63,34,49,2.07,PE,1721594223
389,luang prabang,19.8856,102.1347,23.32,100,98,0.38,LA,1721594224
390,ghanzi,-21.5667,21.7833,17.02,17,31,3.57,BW,1721594226
391,tsimasham,27.0989,89.536,14.7,96,100,0.5,BT,1721594228
392,codrington,-38.2667,141.9667,11.88,92,98,6.38,AU,1721594232
393,orsa,54.5153,30.4053,15.53,87,69,0.39,BY,1721594234
394,bichura,50.5881,107.6022,17.12,85,98,1.05,RU,1721594235
395,chipata,-13.6333,32.65,16.81,41,13,2.07,ZM,1721594237
396,napili-honokowai,20.9708,-156.6705,28.64,76,88,6.51,US,1721594239
397,vicosa do ceara,-3.5622,-41.0922,24.16,37,32,2.11,BR,1721594241
398,vilyuysk,63.7553,121.6247,17.31,62,100,3.14,RU,1721594244
399,tando allahyar,25.4626,68.7192,31.33,65,100,3.31,PK,1721594246
400,assab,13.0092,42.7394,31.71,73,100,2.27,ER,1721594248
401,guerrero negro,27.9769,-114.0611,27.3,58,100,5.75,MX,1721594250
402,lashio,22.9333,97.75,20.66,100,100,0.45,MM,1721594251
403,vilyuchinsk,52.9306,158.4028,10.15,78,98,0.98,RU,1721594253
404,rikaze,29.25,88.8833,14.49,60,100,2.07,CN,1721594255
405,labytnangi,66.6572,66.4183,8.84,71,67,3.54,RU,1721594257
406,macau,22.2006,113.5461,29.28,94,20,3.6,MO,1721594258
407,kralendijk,12.15,-68.2667,31.99,62,40,7.2,BQ,1721594140
408,makinsk,52.6292,70.4169,15.42,91,9,1.76,KZ,1721594262
409,cole harbour,44.6724,-63.4751,21.71,68,86,7.72,CA,1721594264
410,usinsk,65.9939,57.5281,10.7,59,85,3.63,RU,1721594265
411,amga,60.8953,131.9608,14.07,89,15,0.5,RU,1721594267
412,conde,-7.2597,-34.9075,25.7,73,20,5.66,BR,1721594269
413,sao desiderio,-12.3633,-44.9733,24.77,33,84,2.62,BR,1721594271
414,puerto cabezas,14.0351,-83.3888,30.98,79,40,4.12,NI,1721594273
415,olyokminsk,60.3736,120.4264,17.27,68,93,1.21,RU,1721594274
416,naze,28.3667,129.4833,25.51,83,19,2.99,JP,1721594276
417,kinango,-4.1372,39.3153,19.82,87,94,2.21,KE,1721594278
418,kavaratti,10.5669,72.642,27.27,89,100,4.95,IN,1721594280
419,gaigeturi,33.4644,126.3183,26.03,94,40,1.03,KR,1721594281
420,lucea,18.451,-78.1736,30.92,78,99,6.88,JM,1721594283
421,tazacorte,28.629,-17.9293,23.42,88,75,7.2,ES,1721594285
422,khash,28.2211,61.2158,29.81,17,10,2.93,IR,1721594287
423,ilhabela,-23.7781,-45.3581,18.28,83,0,2.18,BR,1721594288
424,diamantino,-14.4086,-56.4461,30.46,20,0,2.53,BR,1721594290
425,socorro,31.6546,-106.3033,30.03,44,75,4.63,US,1721594292
426,ardakan,32.31,54.0175,34.3,15,0,3.02,IR,1721594294
427,saint-pierre,-21.3393,55.4781,20.82,60,20,2.57,RE,1721594297
428,sao vicente,-23.9631,-46.3919,25.64,66,75,2.24,BR,1721594299
429,ust'-ilimsk,58.0006,102.6619,16.68,89,92,1.13,RU,1721594301
430,mazagao,-0.115,-51.2894,32.03,66,19,1.57,BR,1721594303
431,tres lagoas,-20.7511,-51.6783,26.05,24,0,2.96,BR,1721594304
432,thames,-37.1333,175.5333,12.27,94,100,2.2,NZ,1721594306
433,fuengirola,36.54,-4.6247,33.0,27,0,4.63,ES,1721594308
434,kamina,-8.7386,24.9906,19.65,38,0,1.73,CD,1721594310
435,jasper,37.2001,-94.3502,26.12,66,75,3.6,US,1721594312
436,fouesnant,47.8919,-4.0148,16.12,82,100,2.57,FR,1721594313
437,nyagan,62.1406,65.3936,9.55,89,100,1.52,RU,1721594315
438,kyren,51.6828,102.1408,15.86,98,100,0.42,RU,1721594317
439,jaragua,-15.7569,-49.3344,24.72,28,0,2.36,BR,1721594319
440,remire-montjoly,4.9167,-52.2667,28.02,78,0,1.03,GF,1721594321
441,pabellon de arteaga,22.15,-102.25,28.07,30,1,5.99,MX,1721594322
442,bengkulu,-3.8004,102.2655,24.83,89,79,2.05,ID,1721594324
443,ad dindar,13.2,34.1667,25.84,74,100,3.53,SD,1721594326
444,santana,-0.0583,-51.1817,32.1,66,75,2.57,BR,1721594328
445,greenwood,34.1668,-82.1165,31.46,68,40,2.06,US,1721594329
446,tadine,-21.55,167.8833,20.55,72,7,3.82,NC,1721594331
447,waingapu,-9.6567,120.2641,22.61,87,47,3.89,ID,1721594333
448,kovdor,67.5662,30.4758,14.9,60,100,2.02,RU,1721594335
449,issia,6.4922,-6.5856,22.12,99,100,1.4,CI,1721594337
450,tofol,5.3248,163.0078,29.05,75,83,5.85,FM,1721594338
451,inongo,-1.95,18.2667,22.65,55,50,1.86,CD,1721594340
452,lycksele,64.5954,18.6735,17.93,72,20,3.6,SE,1721594342
453,la paz,-16.5,-68.15,15.99,18,20,4.63,BO,1721594344
454,nyurba,63.2842,118.3319,17.7,60,100,2.51,RU,1721594346
455,ichinoseki,38.9167,141.1333,24.95,84,31,1.28,JP,1721594347
456,al bawiti,28.3492,28.8659,32.69,18,6,3.54,EG,1721594349
457,zhezqazghan,47.7833,67.7667,21.32,52,0,3.0,KZ,1721594351
458,harstad,68.799,16.5293,24.66,68,5,1.63,NO,1721594355
459,arrifes,37.7667,-25.7,23.14,83,20,4.63,PT,1721594357
460,bonthe,7.5264,-12.505,24.14,94,100,3.26,SL,1721594359
461,thinadhoo,0.5333,72.9333,29.02,74,14,4.87,MV,1721594360
462,alice springs,-23.7,133.8833,-0.25,80,0,2.57,AU,1721594364
463,panaba,21.2833,-88.2667,32.82,61,100,2.94,MX,1721594366
464,bikenibeu village,1.3673,173.1241,29.98,70,20,6.17,KI,1721594368
465,kapa'a,22.0752,-159.319,27.28,72,40,5.14,US,1721594370
466,puerto madryn,-42.7692,-65.0385,14.16,34,1,4.13,AR,1721594372
467,new plymouth,-39.0667,174.0833,9.34,100,94,2.78,NZ,1721594374
468,hampton bays,40.869,-72.5176,29.1,73,20,6.17,US,1721594376
469,wellington,-41.2866,174.7756,10.81,81,75,11.32,NZ,1721594378
470,bandarbeyla,9.4942,50.8122,25.4,80,79,15.42,SO,1721594380
471,toliara,-23.35,43.6667,18.86,79,0,4.17,MG,1721594381
472,inarajan village,13.2736,144.7484,28.08,94,100,5.14,GU,1721594384
473,sen monorom,12.45,107.2,20.69,99,100,1.65,KH,1721594385
474,kiunga,-6.1219,141.2906,21.94,99,100,0.75,PG,1721594387
475,laguna,38.421,-121.4238,35.73,35,0,3.6,US,1721594389
476,correntina,-13.3433,-44.6367,23.5,35,65,2.19,BR,1721594391
477,quimili,-27.6333,-62.4167,20.03,52,74,4.93,AR,1721594393
478,vila velha,-20.3297,-40.2925,22.97,84,75,4.12,BR,1721594395
479,bhimunipatnam,17.8833,83.4333,26.07,87,93,7.34,IN,1721594397
480,chamical,-30.36,-66.314,13.47,48,96,2.32,AR,1721594399
481,kristiansund,63.1115,7.732,18.03,89,75,1.54,NO,1721594401
482,labuan,5.2767,115.2417,27.2,94,20,0.0,MY,1721594407
483,westport,41.1415,-73.3579,30.64,51,0,3.6,US,1721594292
484,tra vinh,9.9347,106.3453,25.08,91,100,2.79,VN,1721594410
485,shiyan,32.6475,110.7781,26.9,93,53,1.93,CN,1721594412
486,primero de mayo,-32.2552,-58.4228,16.97,85,100,2.04,AR,1721594414
487,carutapera,-1.195,-46.02,26.38,74,8,3.81,BR,1721594416
488,ixtapa,20.7,-105.2,30.68,70,75,3.09,MX,1721594418
489,la ronge,55.1001,-105.2842,23.14,60,75,4.63,CA,1721594419
490,tidjikja,18.5564,-11.4271,34.17,35,96,7.8,MR,1721594421
491,marka,1.7159,44.7717,24.34,86,100,7.99,SO,1721594423
492,bontang,0.1333,117.5,25.64,90,98,3.66,ID,1721594425
493,talakan,50.3167,130.3667,18.06,99,51,0.49,RU,1721594427
494,geraldton,-28.7667,114.6,8.23,81,0,6.69,AU,1721594429
495,bratsk,56.1325,101.6142,19.27,79,100,1.14,RU,1721594430
496,san pedro pochutla,15.7333,-96.4667,32.84,66,98,2.74,MX,1721594432
497,grand falls-windsor,48.9332,-55.6649,25.28,61,99,1.34,CA,1721594434
498,aktau,43.65,51.2,23.32,75,55,1.96,KZ,1721594436
499,buala,-8.145,159.5921,27.22,82,31,3.66,SB,1721594438
500,carlsbad,33.1581,-117.3506,32.4,70,20,4.12,US,1721594440
501,orchard homes,46.8633,-114.0484,36.75,18,0,3.09,US,1721594442
502,ventspils,57.3894,21.5606,15.96,100,0,0.0,LV,1721594444
503,lima duarte,-21.8425,-43.7931,15.49,68,0,1.22,BR,1721594446
504,kapuskasing,49.4169,-82.4331,22.05,49,100,4.63,CA,1721594448
505,taoyuan city,24.9937,121.297,29.13,87,75,2.06,TW,1721594449
506,lazaro cardenas,17.9583,-102.2,30.48,63,69,3.32,MX,1721594451
507,nikolayevsk-on-amure,53.1406,140.73,13.96,99,100,1.67,RU,1721594453
508,ambovombe,-25.1667,46.0833,18.96,86,27,3.13,MG,1721594455
509,balaklava,44.5,33.6,24.65,57,0,1.37,UA,1721594457
510,goondiwindi,-28.55,150.3167,4.97,83,0,1.74,AU,1721594459
511,kuanda,56.3161,116.0806,19.81,84,100,0.24,RU,1721594461
512,puerto baquerizo moreno,-0.9,-89.6,24.55,69,40,7.2,EC,1721594463
513,tarawa,1.419,172.984,30.05,70,20,6.17,KI,1721594464
514,ostersund,63.1792,14.6357,18.25,85,0,7.2,SE,1721594466
515,dryden,49.7833,-92.7503,25.16,31,20,1.54,CA,1721594470
516,barrouallie,13.2333,-61.2667,28.79,74,40,4.63,VC,1721594472
517,kannod,22.6667,76.7333,25.22,95,100,3.25,IN,1721594474
518,whangarei,-35.7317,174.3239,12.76,86,99,2.0,NZ,1721594308
519,rosarito,32.3333,-117.0333,26.8,72,34,3.51,MX,1721594477
520,mugia,43.1041,-9.2179,18.98,82,0,7.81,ES,1721594479
521,jiujiang,29.7333,115.9833,28.48,61,55,2.47,CN,1721594481
522,puerto deseado,-47.7503,-65.8938,10.36,62,59,11.46,AR,1721594483
523,wuxi,31.5689,120.2886,28.65,79,31,4.59,CN,1721594485
524,nichlaul,27.3167,83.7333,27.61,84,100,4.06,IN,1721594487
525,dunedin,-45.8742,170.5036,7.11,80,100,6.71,NZ,1721594489
526,mamers,48.3333,0.25,18.48,83,67,2.87,FR,1721594491
527,happy valley-goose bay,53.3168,-60.3315,20.17,42,75,5.14,CA,1721594492
528,pointe aux piments,-20.0628,57.5131,20.29,84,8,4.79,MU,1721594494
529,korsakov,46.6328,142.7813,18.91,100,96,6.01,RU,1721594496
530,kerikeri,-35.2268,173.9474,11.62,94,83,4.04,NZ,1721594498
531,cidreira,-30.1811,-50.2056,16.65,85,100,1.83,BR,1721594500
532,kraljevo,43.7258,20.6894,25.0,73,40,0.51,RS,1721594502
533,arkhangel'sk,64.5401,40.5433,14.06,82,0,2.0,RU,1721594320
534,marquette,46.5333,-87.6335,20.69,57,0,2.68,US,1721594505
535,st. john's,47.5649,-52.7093,21.75,66,100,5.17,CA,1721594507
536,sidareja,-7.4846,108.7923,20.84,97,64,0.52,ID,1721594509
537,piti village,13.4626,144.6933,28.03,92,20,0.0,GU,1721594511
538,tubarjal,30.4999,38.216,31.6,25,0,8.05,SA,1721594512
539,santa marta,11.2408,-74.199,33.27,64,20,3.6,CO,1721594514
540,cutral-co,-38.9469,-69.2089,12.98,25,2,3.19,AR,1721594516
541,mudbidri,13.0833,74.9833,25.79,100,100,3.09,IN,1721594518
542,tindouf,27.6711,-8.1474,43.25,10,20,1.54,DZ,1721594520
543,as sulayyil,20.4607,45.5779,37.14,10,100,3.14,SA,1721594522
544,archangelos,36.2149,28.1149,26.99,68,0,3.36,GR,1721594523
545,at taj,24.2049,23.2857,31.11,23,0,4.49,LY,1721594525
546,garissa,-0.4536,39.6401,23.31,75,78,9.4,KE,1721594527
547,mitu,1.1983,-70.1733,24.28,92,100,0.93,CO,1721594529
548,el calafate,-50.3408,-72.2768,5.07,98,100,4.76,AR,1721594531
549,mohr,54.3528,9.7167,21.65,87,100,3.09,DE,1721594533
550,uliastay,47.7417,96.8444,12.03,77,17,1.61,MN,1721594535
551,teruel,40.6667,-0.6667,13.69,62,1,1.48,ES,1721594536
552,bubaque,11.2833,-15.8333,26.89,84,100,5.81,GW,1721594538
553,argo,37.6333,22.7333,28.77,46,0,1.58,GR,1721594540
554,sudogda,55.9539,40.8629,15.26,98,51,1.65,RU,1721594542
555,canutama,-6.5339,-64.3831,36.75,20,29,1.39,BR,1721594544
556,saint-amand-montrond,46.75,2.5,20.57,96,100,3.28,FR,1721594546
557,ulladulla,-35.35,150.4667,8.1,78,6,2.41,AU,1721594548
558,la'ie,21.6477,-157.9253,28.98,72,98,3.13,US,1721594550
559,hotan,37.0997,79.9269,28.68,29,99,12.2,CN,1721594552
560,baiyin,36.5583,104.2081,23.94,58,100,1.69,CN,1721594553
561,hilo,19.7297,-155.09,27.83,79,100,3.6,US,1721594555
562,tsetserleg,47.475,101.4542,9.24,87,9,2.03,MN,1721594558
563,mabaruma,8.2,-59.7833,25.88,97,93,1.77,GY,1721594560
564,zhaobaoshan,29.9695,121.6875,29.01,85,7,4.66,CN,1721594561
565,hassi messaoud,31.6804,6.0729,38.92,10,0,1.54,DZ,1721594563
566,kone,-21.0595,164.8658,18.84,72,7,1.07,NC,1721594566
567,nacozari de garcia,30.3742,-109.6908,30.33,42,31,2.8,MX,1721594568
568,staroyur'yevo,53.3161,40.7081,16.58,85,27,1.98,RU,1721594569
569,tandil,-37.3217,-59.1332,10.94,82,46,1.77,AR,1721594571
570,seven pagodas,12.6264,80.1722,30.53,60,100,6.85,IN,1721594573
571,mwanza,-2.5167,32.9,23.66,70,96,2.21,TZ,1721594575
572,ierapetra,35.01,25.7353,30.08,62,0,0.45,GR,1721594576
573,copala,16.65,-98.9833,28.26,65,99,1.8,MX,1721594578
